{"type":"featureCollection","features":[{"catalog_number":"001","date":"2019/4/7","start_time":"3:41 PM","recordist_name":"Jon Myers","colloquial_location":"","latitude":"36.9936","longitude":"-122.0599","recorder_number":"H3-VR","linked_video_filenames":"“SAM_101_0524_1554676886000.mp4” + “SAM_101_0525.mp4”","Linked_audio_catalog_#":"N/A","notes":"","Audited?":"yes","Audited":"N/A","Orientation":"N/A","":""},{"catalog_number":"002","date":"2019/4/7","start_time":"4:00 PM","recordist_name":"Jon Myers","colloquial_location":"","latitude":"36.993","longitude":"-122.0583","recorder_number":"H3-VR","linked_video_filenames":"N/A","Linked_audio_catalog_#":"N/A","notes":"","Audited?":"yes","Audited":"N/A","Orientation":"N/A","":""},{"catalog_number":"003","date":"2019/4/7","start_time":"5:35 PM","recordist_name":"Jon Myers","colloquial_location":"","latitude":"37.0035","longitude":"-122.1850","recorder_number":"H3-VR","linked_video_filenames":"“SAM_101_0527.mp4” + “SAM_101_0528.mp4”","Linked_audio_catalog_#":"6","notes":"Spoken info at end of clip. Videos continue beyond audio, by accident","Audited?":"yes","Audited":"N/A","Orientation":"N/A","":""},{"catalog_number":"004","date":"2019/4/7","start_time":"5:55 PM","recordist_name":"Jon Myers","colloquial_location":"","latitude":"37.0041","longitude":"-122.1851","recorder_number":"H3-VR","linked_video_filenames":"“SAM_101_0529.mp4”","Linked_audio_catalog_#":"7","notes":"","Audited?":"yes","Audited":"N/A","Orientation":"N/A","":""},{"catalog_number":"005","date":"2019/4/7","start_time":"6:39 PM","recordist_name":"Jon Myers","colloquial_location":"","latitude":"37.0002","longitude":"-122.1809","recorder_number":"H3-VR","linked_video_filenames":"“SAM_101_0530_1554687561000.mp4” + “SAM_101_0531,mp4”","Linked_audio_catalog_#":"8","notes":"","Audited?":"yes","Audited":"N/A","Orientation":"N/A","":""},{"catalog_number":"006","date":"2019/4/7","start_time":"5:35 PM","recordist_name":"Marguerite Brown","colloquial_location":"","latitude":"37.0035","longitude":"-122.1850","recorder_number":"H3-VR","linked_video_filenames":"N/A","Linked_audio_catalog_#":"3","notes":"Spoken info at end of clip.","Audited?":"yes","Audited":"N/A","Orientation":"N/A","":""},{"catalog_number":"007","date":"2019/4/7","start_time":"5:55 PM","recordist_name":"Marguerite Brown","colloquial_location":"","latitude":"37.0041","longitude":"-122.1851","recorder_number":"H3-VR","linked_video_filenames":"N/A","Linked_audio_catalog_#":"4","notes":"","Audited?":"yes","Audited":"N/A","Orientation":"N/A","":""},{"catalog_number":"008","date":"2019/4/7","start_time":"6:39 PM","recordist_name":"Marguerite Brown","colloquial_location":"","latitude":"37.0002","longitude":"-122.1809","recorder_number":"H3-VR","linked_video_filenames":"N/A","Linked_audio_catalog_#":"5","notes":"","Audited?":"yes","Audited":"N/A","Orientation":"N/A","":""},{"catalog_number":"009","date":"2019/4/17","start_time":"11:37 AM","recordist_name":"Jon Myers","colloquial_location":"The grand concourse outside the music center, overlooking the cow pasture","latitude":"36.993","longitude":"-122.0604","recorder_number":"H3-VR","linked_video_filenames":"N/A","Linked_audio_catalog_#":"N/A","notes":"Gamelan class in session","Audited?":"yes","Audited":"N/A","Orientation":"N/A","":""},{"catalog_number":"010","date":"2019/4/17","start_time":"11:54 AM","recordist_name":"Jon Myers","colloquial_location":"Field in front of Chancellor’s residence","latitude":"36.9922","longitude":"-122.0611","recorder_number":"H3-VR","linked_video_filenames":"N/A","Linked_audio_catalog_#":"N/A","notes":"","Audited?":"yes","Audited":"N/A","Orientation":"N/A","":""},{"catalog_number":"011","date":"2019/4/17","start_time":"12:18 PM","recordist_name":"Jon Myers","colloquial_location":"3rd floor balcony of the DARC.","latitude":"36.9937","longitude":"-122.0607","recorder_number":"H3-VR","linked_video_filenames":"N/A","Linked_audio_catalog_#":"N/A","notes":"","Audited?":"yes","Audited":"N/A","Orientation":"N/A","":""},{"catalog_number":"012","date":"2019/4/18","start_time":"11:34 AM","recordist_name":"Jon Myers","colloquial_location":"Off the path between Mchenry Library and AR center","latitude":"36.9949","longitude":"-122.0598","recorder_number":"H3-VR","linked_video_filenames":"N/A","Linked_audio_catalog_#":"N/A","notes":"Cicadas","Audited?":"yes; (very audible student talks about getting high /playing overwatch . . .  at 1:45; is this okay to include?)","Audited":"N/A","Orientation":"N/A","":""},{"catalog_number":"013","date":"2019/4/18","start_time":"11:46 AM","recordist_name":"Jon Myers","colloquial_location":"Path near McHenry parking lot, beneath the Art buildings, tiny Redwood Grove","latitude":"36.9958","longitude":"-122.0606","recorder_number":"H3-VR","linked_video_filenames":"N/A","Linked_audio_catalog_#":"N/A","notes":"Cicadas","Audited?":"yes","Audited":"N/A","Orientation":"N/A","":""},{"catalog_number":"014","date":"2019/4/18","start_time":"6:23 PM","recordist_name":"Jon Myers","colloquial_location":"Kerr road, outside visual arts complex.","latitude":"36.9945","longitude":"-122.0614","recorder_number":"H3-VR","linked_video_filenames":"N/A","Linked_audio_catalog_#":"N/A","notes":"Loud van w/ engine on in middle of recording.","Audited?":"yes","Audited":"N/A","Orientation":"N/A","":""},{"catalog_number":"015","date":"2019/4/18","start_time":"6:34 PM","recordist_name":"Jon Myers","colloquial_location":"Outside Kerr Hall, on  a path","latitude":"36.9965","longitude":"-122.0613","recorder_number":"H3-VR","linked_video_filenames":"N/A","Linked_audio_catalog_#":"N/A","notes":"","Audited?":"yes","Audited":"N/A","Orientation":"N/A","":""},{"catalog_number":"016","date":"2019/4/18","start_time":"6:50 PM","recordist_name":"Jon Myers","colloquial_location":"Path below Kresge college","latitude":"36.9956","longitude":"-122.0665","recorder_number":"H3-VR","linked_video_filenames":"N/A","Linked_audio_catalog_#":"N/A","notes":"","Audited?":"yes","Audited":"N/A","Orientation":"N/A","":""},{"catalog_number":"017","date":"2019/4/18","start_time":"7:04 PM","recordist_name":"Jon Myers","colloquial_location":"Hillside by porter meadow , overlooking empire grade","latitude":"36.9958","longitude":"-122.0684","recorder_number":"H3-VR","linked_video_filenames":"N/A","Linked_audio_catalog_#":"N/A","notes":"","Audited?":"yes","Audited":"N/A","Orientation":"N/A","":""},{"catalog_number":"018","date":"2019/4/18","start_time":"7:12 PM","recordist_name":"Jon Myers","colloquial_location":"in the Empire Cave, near entrance","latitude":"36.9961","longitude":"-122.0688","recorder_number":"H3-VR","linked_video_filenames":"N/A","Linked_audio_catalog_#":"N/A","notes":"loud fussing at beginning","Audited?":"yes","Audited":"N/A","Orientation":"N/A","":""},{"catalog_number":"019","date":"2019/4/18","start_time":"7:38 PM","recordist_name":"Jon Myers","colloquial_location":"bottom of the steps near arts complex","latitude":"36.9933","longitude":"-122.0627","recorder_number":"H3-VR","linked_video_filenames":"N/A","Linked_audio_catalog_#":"N/A","notes":"","Audited?":"“Butt-chugging vodka” overheard . . . perhaps this needs to be edited / not included","Audited":"N/A","Orientation":"N/A","":""},{"catalog_number":"020","date":"2019/4/19","start_time":"5:47 PM","recordist_name":"Sam Cushman","colloquial_location":"Upper Campus, three paths that meet.","latitude":"37.0193","longitude":"-122.0742","recorder_number":"H3-VR","linked_video_filenames":"N/A","Linked_audio_catalog_#":"22, 24","notes":"No GPS signal; best guess from map.","Audited?":"Yes; Some speech on record, but I think it is okay . . .","Audited":"N/A","Orientation":"N/A","":""},{"catalog_number":"021","date":"2019/4/19","start_time":"6:06 PM","recordist_name":"Sam Cushman","colloquial_location":"Upper Campus, just SE of “the painted tanks”","latitude":"37.0100","longitude":"-122.0661","recorder_number":"H3-VR","linked_video_filenames":"N/A","Linked_audio_catalog_#":"23, 25","notes":"No GPS signal; reconstructed from map. Strange Growling in the distance. Woodpecker?","Audited?":"Yes; some speech of passersby.","Audited":"N/A","Orientation":"N/A","":""},{"catalog_number":"022","date":"2019/4/19","start_time":"5:47 PM","recordist_name":"Zach Hejny","colloquial_location":"Upper Campus, three paths that meet.","latitude":"37.0197","longitude":"-122.0742","recorder_number":"H3-VR","linked_video_filenames":"N/A","Linked_audio_catalog_#":"20, 24","notes":"No GPS signal; best guess from map. Recorder left on at end by accident, incidental conversation / walking was recorded. Owl as we approach second location.","Audited?":"Yes; Some speech on record, but I think it is okay . . .","Audited":"N/A","Orientation":"N/A","":""},{"catalog_number":"023","date":"2019/4/19","start_time":"6:06 PM","recordist_name":"Zach Hejny","colloquial_location":"Upper Campus, just NW of “the painted tanks”","latitude":"37.0101","longitude":"-122.0664","recorder_number":"H3-VR","linked_video_filenames":"N/A","Linked_audio_catalog_#":"21, 25","notes":"No GPS signal; reconstructed from map. Strange Growling in the distance. Woodpecker?","Audited?":"Yes; Some speech on record, but I think it is okay . . .","Audited":"N/A","Orientation":"N/A","":""},{"catalog_number":"024","date":"2019/4/19","start_time":"5:47 PM","recordist_name":"Jon Myers","colloquial_location":"Upper Campus, three paths that meet.","latitude":"37.0194","longitude":"-122.0735","recorder_number":"H3-VR","linked_video_filenames":"N/A","Linked_audio_catalog_#":"20, 22","notes":"No GPS signal; best guess from map. Recorder left on at end by accident, incidental conversation / walking was recorded. Owl as we approach second location.","Audited?":"Yes; Some speech on record, but I think it is okay . . .","Audited":"N/A","Orientation":"N/A","":""},{"catalog_number":"025","date":"2019/4/19","start_time":"6:06 PM","recordist_name":"Jon Myers","colloquial_location":"Upper Campus, amids / beneath “the painted tanks”","latitude":"37.0101","longitude":"-122.0662","recorder_number":"H3-VR","linked_video_filenames":"N/A","Linked_audio_catalog_#":"21, 23","notes":"No GPS signal; reconstructed from map. Strange Growling in the distance. Woodpecker?","Audited?":"Yes; Some speech on record, but I think it is okay . . .","Audited":"N/A","Orientation":"N/A","":""},{"catalog_number":"026","date":"2019/4/23","start_time":"10:26 AM","recordist_name":"Jon Myers / Dard Neumann","colloquial_location":"Krechmer Plaza","latitude":"36.9931","longitude":"-122.0601","recorder_number":"H3-VR","linked_video_filenames":"N/A","Linked_audio_catalog_#":"27","notes":"one on either side of the plaza, facing the ocean.","Audited?":"Yes. (Zach Hejny interrupts)","Audited":"N/A","Orientation":"N/A","":""},{"catalog_number":"027","date":"2019/4/23","start_time":"10:26 AM","recordist_name":"Jon Myers / Dard Neumann","colloquial_location":"Krechmer Plaza","latitude":"36.9931","longitude":"-122.0601","recorder_number":"H3-VR","linked_video_filenames":"N/A","Linked_audio_catalog_#":"26","notes":"one on either side of the plaza, facing the ocean.","Audited?":"Yes. (Zach Hejny interrupts)","Audited":"N/A","Orientation":"N/A","":""},{"catalog_number":"028","date":"2019/4/21","start_time":"11:53 PM","recordist_name":"Skylar Liu","colloquial_location":"Grass field next to Rachel Carson college.","latitude":"36.9932891","longitude":"-122.0630112","recorder_number":"H3-VR","linked_video_filenames":"N/A","Linked_audio_catalog_#":"N/A","notes":"","Audited?":"yes","Audited":"N/A","Orientation":"N/A","":""},{"catalog_number":"029","date":"2019/4/20","start_time":"5:00 PM","recordist_name":"Jon Myers","colloquial_location":"Upper Quary","latitude":"36.9989","longitude":"-122.0587","recorder_number":"H3-VR","linked_video_filenames":"N/A","Linked_audio_catalog_#":"N/A","notes":"","Audited?":"yes","Audited":"N/A","Orientation":"N/A","":""},{"catalog_number":"030","date":"2019/4/20","start_time":"5:09 PM","recordist_name":"Jon Myers","colloquial_location":"Under a bridge beneath McLaughlin drive;  near college 10.","latitude":"36.9998","longitude":"-122.0587","recorder_number":"H3-VR","linked_video_filenames":"N/A","Linked_audio_catalog_#":"N/A","notes":"","Audited?":"yes","Audited":"N/A","Orientation":"N/A","":""},{"catalog_number":"031","date":"2019/4/20","start_time":"5:26 PM","recordist_name":"Jon Myers","colloquial_location":"In a redwood grove; upper campus","latitude":"37.0025","longitude":"-122.0616","recorder_number":"H3-VR","linked_video_filenames":"N/A","Linked_audio_catalog_#":"N/A","notes":"no gps signal . . . did my best at the time. Nothing much going on here in this recording . . .","Audited?":"yes","Audited":"N/A","Orientation":"N/A","":""},{"catalog_number":"032","date":"2019/4/20","start_time":"5:46 PM","recordist_name":"Jon Myers","colloquial_location":"seep zone interpretive trail # 09","latitude":"","longitude":"","recorder_number":"H3-VR","linked_video_filenames":"N/A","Linked_audio_catalog_#":"N/A","notes":"no gps signal . . . did my best at the time. Nothing much going on here in this recording . . .","Audited?":"yes","Audited":"N/A","Orientation":"N/A","":""},{"catalog_number":"033","date":"2019/4/20","start_time":"5:55 PM","recordist_name":"Jon Myers","colloquial_location":"above seep zone interpretive trail","latitude":"","longitude":"","recorder_number":"H3-VR","linked_video_filenames":"N/A","Linked_audio_catalog_#":"N/A","notes":"crazy sounding dead Tree! no gps signal . . . did my best at the time. Nothing much going on here in this recording . . .","Audited?":"yes","Audited":"N/A","Orientation":"N/A","":""},{"catalog_number":"034","date":"2019/4/21","start_time":"10:04 AM","recordist_name":"Jon Myers","colloquial_location":"Krechmer Plaza entry corridor","latitude":"36.9934","longitude":"-122.0602","recorder_number":"H3-VR","linked_video_filenames":"N/A","Linked_audio_catalog_#":"N/A","notes":"","Audited?":"yes","Audited":"N/A","Orientation":"N/A","":""},{"catalog_number":"035","date":"2019/4/21","start_time":"10:17 AM","recordist_name":"Jon Myers","colloquial_location":"point of triangle behind music center","latitude":"36.9928","longitude":"-122.0599","recorder_number":"H3-VR","linked_video_filenames":"N/A","Linked_audio_catalog_#":"N/A","notes":"","Audited?":"yes","Audited":"N/A","Orientation":"N/A","":""},{"catalog_number":"036","date":"2019/4/22","start_time":"2:30 PM","recordist_name":"Miranda Barbiere","colloquial_location":"east field meadow","latitude":"36.9928","longitude":"-122.0591","recorder_number":"H3-VR","linked_video_filenames":"N/A","Linked_audio_catalog_#":"N/A","notes":"She seems to be walking around ??!! Are those cows?","Audited?":"yes","Audited":"N/A","Orientation":"N/A","":""},{"catalog_number":"037","date":"2019/4/16","start_time":"12:52 PM","recordist_name":"Mustafa Walker","colloquial_location":"Woods between Rachel Carson College and Music Center","latitude":"36.99","longitude":"-122.06","recorder_number":"H3-VR","linked_video_filenames":"N/A","Linked_audio_catalog_#":"N/A","notes":"Should try get better coordinates somehow . . .","Audited?":"yes","Audited":"N/A","Orientation":"N/A","":""},{"catalog_number":"038","date":"2019/4/20","start_time":"11:35 AM","recordist_name":"Mustafa Walker","colloquial_location":"Upper Quary","latitude":"36.9987","longitude":"-122.0578","recorder_number":"H3-VR","linked_video_filenames":"N/A","Linked_audio_catalog_#":"N/A","notes":"","Audited?":"yes","Audited":"N/A","Orientation":"N/A","":""},{"catalog_number":"039","date":"2019/4/20","start_time":"12:11 PM","recordist_name":"Mustafa Walker","colloquial_location":"West Fork; Jordan Gultch","latitude":"37.0025","longitude":"-122.0604","recorder_number":"H3-VR","linked_video_filenames":"N/A","Linked_audio_catalog_#":"N/A","notes":"","Audited?":"yes","Audited":"N/A","Orientation":"N/A","":""},{"catalog_number":"040","date":"2019/4/20","start_time":"1:01 PM","recordist_name":"Mustafa Walker","colloquial_location":"Amphitheater behind theater department","latitude":"36.9959","longitude":"-122.0620","recorder_number":"H3-VR","linked_video_filenames":"N/A","Linked_audio_catalog_#":"N/A","notes":"","Audited?":"yes","Audited":"N/A","Orientation":"N/A","":""},{"catalog_number":"041","date":"2019/4/30","start_time":"9:40 AM","recordist_name":"Daniel Augenbaugh ","colloquial_location":"Hill below the recital hall.","latitude":"36.9911","longitude":"-122.0611","recorder_number":"H3-VR","linked_video_filenames":"N/A","Linked_audio_catalog_#":"N/A","notes":"","Audited?":"yes","Audited":"N/A","Orientation":"N/A","":""},{"catalog_number":"042","date":"2019/4/23","start_time":"11:22 AM","recordist_name":"Max Green","colloquial_location":"","latitude":"36.9934","longitude":"-122.0601","recorder_number":"H3-VR","linked_video_filenames":"N/A","Linked_audio_catalog_#":"N/A","notes":"gamelan drums; cicadas","Audited?":"Yes; watch out for speech at end!","Audited":"N/A","Orientation":"N/A","":""},{"catalog_number":"043","date":"2019/4/23","start_time":"11:48 AM","recordist_name":"Max Green","colloquial_location":"","latitude":"36.9939","longitude":"-122.0624","recorder_number":"H3-VR","linked_video_filenames":"N/A","Linked_audio_catalog_#":"N/A","notes":"Cicadas!!! (and cars)","Audited?":"yes","Audited":"N/A","Orientation":"N/A","":""},{"catalog_number":"044","date":"2019/4/25","start_time":"5:50 PM","recordist_name":"Catalina Castro","colloquial_location":"Pogonip Trail","latitude":"36.9900","longitude":"-122.041","recorder_number":"H3-VR","linked_video_filenames":"N/A","Linked_audio_catalog_#":"N/A","notes":"","Audited?":"yes","Audited":"N/A","Orientation":"N/A","":""},{"catalog_number":"045","date":"2019/5/4","start_time":"5:54 PM","recordist_name":"Catalina Castro","colloquial_location":"Porter Meadows","latitude":"36.9948","longitude":"-122.0680","recorder_number":"H3-VR","linked_video_filenames":"N/A","Linked_audio_catalog_#":"N/A","notes":"","Audited?":"yes","Audited":"N/A","Orientation":"N/A","":""},{"catalog_number":"046","date":"2019/5/4","start_time":"6:00 PM","recordist_name":"Catalina Castro","colloquial_location":"Porter Meadows","latitude":"36.9948","longitude":"-122.0680","recorder_number":"H3-VR","linked_video_filenames":"N/A","Linked_audio_catalog_#":"N/A","notes":"","Audited?":"yes","Audited":"N/A","Orientation":"N/A","":""},{"catalog_number":"047","date":"2019/5/7","start_time":"10:50 AM","recordist_name":"Max Green","colloquial_location":"","latitude":"36.9911","longitude":"-122.0614","recorder_number":"H3-VR","linked_video_filenames":"N/A","Linked_audio_catalog_#":"N/A","notes":"","Audited?":"yes","Audited":"N/A","Orientation":"N/A","":""},{"catalog_number":"048","date":"2019/5/7","start_time":"11:30 AM","recordist_name":"Max Green","colloquial_location":"Porter Dining Hall","latitude":"36.9953","longitude":"-122.0660","recorder_number":"H3-VR","linked_video_filenames":"N/A","Linked_audio_catalog_#":"N/A","notes":"","Audited?":"yes","Audited":"N/A","Orientation":"N/A","":""},{"catalog_number":"049","date":"2019/5/15","start_time":"9:16 AM","recordist_name":"Max Green","colloquial_location":"","latitude":"36.997","longitude":"-122.061","recorder_number":"H3-VR","linked_video_filenames":"N/A","Linked_audio_catalog_#":"N/A","notes":"Rain!","Audited?":"yes","Audited":"N/A","Orientation":"N/A","":""},{"catalog_number":"050","date":"2019/5/17","start_time":"3:33 PM","recordist_name":"Jon Myers","colloquial_location":"Mitchell’s Cove, off West Cliff Drive","latitude":"36.9525","longitude":"-122.0416","recorder_number":"H3-VR","linked_video_filenames":"","Linked_audio_catalog_#":"N/A","notes":"Dogs, Ocean","Audited?":"yes","Audited":"N/A","Orientation":"N/A","":""},{"catalog_number":"051","date":"2019/5/17","start_time":"3:41 PM","recordist_name":"Jon Myers","colloquial_location":"Mitchell's Cove, off West Cliff Drive","latitude":"36.9520","longitude":"-122.0420","recorder_number":"H3-VR","linked_video_filenames":"","Linked_audio_catalog_#":"N/A","notes":"Dog, waterfall, ocean.","Audited?":"yes","Audited":"N/A","Orientation":"N/A","":""},{"catalog_number":"052","date":"2019/5/17","start_time":"4:25","recordist_name":"Jon Myers","colloquial_location":"Near Maze off Spring Trail in Pogonip","latitude":"36.9923","longitude":"-122.0488","recorder_number":"H3-VR","linked_video_filenames":"N/A","Linked_audio_catalog_#":"N/A","notes":"Cicadas. walkers.","Audited?":"yes. (Some random chatter; I think it is fine to post)","Audited":"N/A","Orientation":"N/A","":""},{"catalog_number":"053","date":"2019/5/17","start_time":"4:34","recordist_name":"Jon Myers","colloquial_location":"Spring Trail in Pogonip","latitude":"36.9943","longitude":"-122.0488","recorder_number":"H3-VR","linked_video_filenames":"N/A","Linked_audio_catalog_#":"N/A","notes":"Wind. Birds.","Audited?":"Yes.","Audited":"N/A","Orientation":"N/A","":""},{"catalog_number":"054","date":"2019/5/17","start_time":"4:52 PM","recordist_name":"Jon Myers","colloquial_location":"Above a spring along Spring Trail in Pogonip.","latitude":"36.9971","longitude":"-122.0489","recorder_number":"H3-VR","linked_video_filenames":"","Linked_audio_catalog_#":"N/A","notes":"Creek.","Audited?":"Yes.","Audited":"N/A","Orientation":"N/A","":""},{"catalog_number":"055","date":"2019/5/17","start_time":"5:09 PM","recordist_name":"Jon Myers","colloquial_location":"Brayshaw Trail, Pogonip","latitude":"36.9970","longitude":"-122.0465","recorder_number":"H3-VR","linked_video_filenames":"N/A","Linked_audio_catalog_#":"N/A","notes":"Birds.","Audited?":"Yes.","Audited":"N/A","Orientation":"N/A","":""},{"catalog_number":"056","date":"2019/5/17","start_time":"5:24 PM","recordist_name":"Jon Myers","colloquial_location":"Brayshaw Trail, Pogonip","latitude":"36.9970","longitude":"-122.0462","recorder_number":"H3-VR","linked_video_filenames":"N/A","Linked_audio_catalog_#":"N/A","notes":"Birds. Cicadas","Audited?":"Yes.","Audited":"N/A","Orientation":"N/A","":""},{"catalog_number":"057","date":"2019/5/18","start_time":"11:22 AM","recordist_name":"Jon Myers","colloquial_location":"1911 Looff Carousel at the Santa Cruz Boardwalk","latitude":"36.9642","longitude":"-122.0185","recorder_number":"H3-VR","linked_video_filenames":"","Linked_audio_catalog_#":"N/A","notes":"Band Organs, PA system, some chatter (asking permission). Moving around to get in Queue at the end.","Audited?":"Yes.","Audited":"N/A","Orientation":"N/A","":""},{"catalog_number":"058","date":"2019/5/18","start_time":"11:29 AM","recordist_name":"Jon Myers","colloquial_location":"1911 Looff Carousel at the Santa Cruz Boardwalk","latitude":"36.9642","longitude":"-122.0185","recorder_number":"H3-VR","linked_video_filenames":"","Linked_audio_catalog_#":"N/A","notes":"Band Organs, PA System, people throwing rings, screaming, riding on the ride. ","Audited?":"Yes.","Audited":"N/A","Orientation":"N/A","":""},{"catalog_number":"059","date":"2019/5/15","start_time":"12:41 PM","recordist_name":"Iam Bhisitkul","colloquial_location":"Upper Quarry (Behind the Amphitheater)","latitude":"36.9988","longitude":"-122.0579","recorder_number":"H3-VR","linked_video_filenames":"N/A","Linked_audio_catalog_#":"N/A","notes":"","Audited?":"yes","Audited":"N/A","Orientation":"N/A","":""},{"catalog_number":"060","date":"2019/5/28","start_time":"1:46 PM","recordist_name":"Jon Myers","colloquial_location":"Behind the Music Center","latitude":"36.9929","longitude":"-122.0604","recorder_number":"H3-VR","linked_video_filenames":"N/A","Linked_audio_catalog_#":"N/A","notes":"","Audited?":"yes","Audited":"N/A","Orientation":"N/A","":""},{"catalog_number":"061","date":"2019/5/5","start_time":"6:05 PM","recordist_name":"Albert Peacock","colloquial_location":"Under the bridge connecting Science Hill to College 9/10","latitude":"37.0001","longitude":"-122.0596","recorder_number":"H3-VR","linked_video_filenames":"N/A","Linked_audio_catalog_#":"N/A","notes":"","Audited?":"yes","Audited":"N/A","Orientation":"N/A","":""},{"catalog_number":"062","date":"2019/6/1","start_time":"5:22 PM","recordist_name":"Jon Myers","colloquial_location":"Seaview and Logan, in Seabright, Santa Cruz.","latitude":"36.969","longitude":"-122.0116","recorder_number":"H3-VR","linked_video_filenames":"N/A","Linked_audio_catalog_#":"N/A","notes":"Mockingbird; documentation at the end of recording.","Audited?":"yes","Audited":"N/A","Orientation":"N/A","":""},{"catalog_number":"063","date":"2019/6/3","start_time":"9:39 AM","recordist_name":"Jon Myers","colloquial_location":"","latitude":"36.9961","longitude":"-122.0612","recorder_number":"H3-VR","linked_video_filenames":"N/A","Linked_audio_catalog_#":"N/A","notes":"","Audited?":"yes","Audited":"N/A","Orientation":"N/A","":""},{"catalog_number":"064","date":"2019/6/3","start_time":"9:55 AM","recordist_name":"Jon Myers","colloquial_location":"outside Norris center for Natural history, across from Science Library","latitude":"36.9987","longitude":"-122.0606","recorder_number":"H3-VR","linked_video_filenames":"N/A","Linked_audio_catalog_#":"N/A","notes":"Noise / vent","Audited?":"yes","Audited":"N/A","Orientation":"N/A","":""},{"catalog_number":"065","date":"2019/6/3","start_time":"10:14 AM","recordist_name":"Jon Myers","colloquial_location":"outside Marine Sciences building.","latitude":"36.998","longitude":"-122.0603","recorder_number":"H3-VR","linked_video_filenames":"N/A","Linked_audio_catalog_#":"N/A","notes":"","Audited?":"yes","Audited":"N/A","Orientation":"N/A","":""},{"catalog_number":"066","date":"2019/5/5","start_time":"7:00 PM","recordist_name":"Albert Peacock","colloquial_location":"Entrance to Bike path by Music Center. ","latitude":"36.9926","longitude":"-122.0605","recorder_number":"H3-VR","linked_video_filenames":"N/A","Linked_audio_catalog_#":"N/A","notes":"","Audited?":"yes","Audited":"N/A","Orientation":"N/A","":""},{"catalog_number":"067","date":"2019/5/5","start_time":"7:05 PM","recordist_name":"Albert Peacock","colloquial_location":"Entrance to Bike path by Music Center. ","latitude":"36.9926","longitude":"-122.0605","recorder_number":"H3-VR","linked_video_filenames":"N/A","Linked_audio_catalog_#":"N/A","notes":"","Audited?":"yes","Audited":"N/A","Orientation":"N/A","":""},{"catalog_number":"068","date":"2019/5/12","start_time":"7:29 PM","recordist_name":"Albert Peacock","colloquial_location":"Grass behind McHenry Library","latitude":"36.9956","longitude":"-122.0594","recorder_number":"H3-VR","linked_video_filenames":"N/A","Linked_audio_catalog_#":"N/A","notes":"","Audited?":"yes","Audited":"N/A","Orientation":"N/A","":""},{"catalog_number":"069","date":"2019/5/12","start_time":"7:53 PM","recordist_name":"Albert Peacock","colloquial_location":"Top Floor of Core West Parking Structure","latitude":"36.9992","longitude":"-122.0638","recorder_number":"H3-VR","linked_video_filenames":"N/A","Linked_audio_catalog_#":"N/A","notes":"","Audited?":"yes","Audited":"N/A","Orientation":"N/A","":""},{"catalog_number":"070","date":"2019/5/29","start_time":"1:44 PM","recordist_name":"Krista Dugan","colloquial_location":"Cow Pasture","latitude":"36.9942","longitude":"-122.0604","recorder_number":"H3-VR","linked_video_filenames":"N/A","Linked_audio_catalog_#":"N/A","notes":"cicadas","Audited?":"yes","Audited":"N/A","Orientation":"N/A","":""},{"catalog_number":"071","date":"2019/5/29","start_time":"2:26 PM","recordist_name":"Krista Dugan","colloquial_location":"Oakes to Music center trail","latitude":"36.9911","longitude":"-122.0633","recorder_number":"H3-VR","linked_video_filenames":"N/A","Linked_audio_catalog_#":"N/A","notes":"","Audited?":"yes","Audited":"N/A","Orientation":"N/A","":""},{"catalog_number":"072","date":"2019/5/29","start_time":"3:13 PM","recordist_name":"Krista Dugan","colloquial_location":"Porter Meadows","latitude":"36.9956","longitude":"-122.0678","recorder_number":"H3-VR","linked_video_filenames":"N/A","Linked_audio_catalog_#":"N/A","notes":"cicadas","Audited?":"yes","Audited":"N/A","Orientation":"N/A","":""},{"catalog_number":"073","date":"2019/5/29","start_time":"4:06 PM","recordist_name":"Krista Dugan","colloquial_location":"Under the bridge connecting science hill to classroom unit 2","latitude":"36.9978","longitude":"-122.0578","recorder_number":"H3-VR","linked_video_filenames":"N/A","Linked_audio_catalog_#":"N/A","notes":"","Audited?":"","Audited":"N/A","Orientation":"N/A","":""},{"catalog_number":"074","date":"2019/5/29","start_time":"6:20 PM","recordist_name":"Krista Dugan","colloquial_location":"Trail by Cowell Stevenson Bus Stop","latitude":"36.9961","longitude":"-122.0560","recorder_number":"H3-VR","linked_video_filenames":"N/A","Linked_audio_catalog_#":"N/A","notes":"","Audited?":"yes","Audited":"N/A","Orientation":"N/A","":""},{"catalog_number":"075","date":"2019/5/12","start_time":"8:54 PM","recordist_name":"Albert Peacock","colloquial_location":"Bench in Porter Meadows","latitude":"36.9992","longitude":"-122.0638","recorder_number":"H3-VR","linked_video_filenames":"N/A","Linked_audio_catalog_#":"N/A","notes":"mostly silent","Audited?":"yes","Audited":"N/A","Orientation":"N/A","":""},{"catalog_number":"076","date":"2019/5/12","start_time":"8:56 PM","recordist_name":"Albert Peacock","colloquial_location":"Bench in Porter Meadows","latitude":"36.9960","longitude":"-122.0678","recorder_number":"H3-VR","linked_video_filenames":"N/A","Linked_audio_catalog_#":"N/A","notes":"mostly silent","Audited?":"yes","Audited":"N/A","Orientation":"N/A","":""},{"catalog_number":"077","date":"2019/5/17","start_time":"7:38 PM","recordist_name":"Albert Peacock","colloquial_location":"Santa Cruz Wharf","latitude":"36.9573","longitude":"-122.0173","recorder_number":"H3-VR","linked_video_filenames":"N/A","Linked_audio_catalog_#":"N/A","notes":"great sea lions and water fowl. No attribution.","Audited?":"yes; Some speech, but lots of speechless sections","Audited":"N/A","Orientation":"N/A","":""},{"catalog_number":"078","date":"2019/5/17","start_time":"7:58 PM","recordist_name":"Albert Peacock","colloquial_location":"Santa Cruz Wharf","latitude":"36.9573","longitude":"-122.0173","recorder_number":"H3-VR","linked_video_filenames":"N/A","Linked_audio_catalog_#":"N/A","notes":"great sea lions and water fowl. No attribution.","Audited?":"yes, just a little bit of speech","Audited":"N/A","Orientation":"N/A","":""},{"catalog_number":"079","date":"2019/5/19","start_time":"6:33 PM","recordist_name":"Albert Peacock","colloquial_location":"The Painted Barrels (on upper campus)","latitude":"37.0099","longitude":"-122.0661","recorder_number":"H3-VR","linked_video_filenames":"N/A","Linked_audio_catalog_#":"N/A","notes":"","Audited?":"yes","Audited":"N/A","Orientation":"N/A","":""},{"catalog_number":"080","date":"2019/5/19","start_time":"6:37 PM","recordist_name":"Albert Peacock","colloquial_location":"The Painted Barrels (on upper campus)","latitude":"37.0099","longitude":"-122.0661","recorder_number":"H3-VR","linked_video_filenames":"N/A","Linked_audio_catalog_#":"N/A","notes":"(again, with higher gain)","Audited?":"yes","Audited":"N/A","Orientation":"N/A","":""},{"catalog_number":"081","date":"2019/5/20","start_time":"3:58 PM","recordist_name":"Albert Peacock","colloquial_location":"Woodshop in art center","latitude":"36.9948","longitude":"-122.0609","recorder_number":"H3-VR","linked_video_filenames":"N/A","Linked_audio_catalog_#":"N/A","notes":"canned music. Is posting of copywritten material okay?","Audited?":"yes","Audited":"N/A","Orientation":"N/A","":""},{"catalog_number":"082","date":"2019/5/20","start_time":"4:04 PM","recordist_name":"Albert Peacock","colloquial_location":"Woodshop in Art Center","latitude":"36.9948","longitude":"-122.0609","recorder_number":"H3-VR","linked_video_filenames":"N/A","Linked_audio_catalog_#":"N/A","notes":"canned music. Is posting of copywritten material okay?","Audited?":"yes","Audited":"N/A","Orientation":"N/A","":""},{"catalog_number":"083","date":"2019/5/20","start_time":"4:39 PM","recordist_name":"Albert Peacock","colloquial_location":"Outside of the Foundry, Theater arts dept.","latitude":"36.9955","longitude":"-122.0622","recorder_number":"H3-VR","linked_video_filenames":"N/A","Linked_audio_catalog_#":"N/A","notes":"","Audited?":"yes","Audited":"N/A","Orientation":"N/A","":""},{"catalog_number":"084","date":"2019/5/28","start_time":"10:53 AM","recordist_name":"Albert Peacock","colloquial_location":"Koi Pond, Porter College.","latitude":"36.9942","longitude":"-122.0651","recorder_number":"H3-VR","linked_video_filenames":"N/A","Linked_audio_catalog_#":"N/A","notes":"","Audited?":"yes","Audited":"N/A","Orientation":"N/A","":""},{"catalog_number":"085","date":"2019/5/28","start_time":"5:10 PM","recordist_name":"Claudio Sangeroki","colloquial_location":"Porter Quad","latitude":"36.9953","longitude":"-122.0653","recorder_number":"H3-VR","linked_video_filenames":"N/A","Linked_audio_catalog_#":"N/A","notes":"distortion / hand sounds in first few minutes?","Audited?":"yes","Audited":"N/A","Orientation":"N/A","":""},{"catalog_number":"086","date":"2019/5/28","start_time":"5:15 PM","recordist_name":"Claudio Sangeroki","colloquial_location":"Porter Quad","latitude":"36.9949","longitude":"-122.0649","recorder_number":"H3-VR","linked_video_filenames":"N/A","Linked_audio_catalog_#":"N/A","notes":"","Audited?":"yes","Audited":"N/A","Orientation":"N/A","":""},{"catalog_number":"087","date":"2019/5/28","start_time":"5:30 PM","recordist_name":"Claudio Sangeroki","colloquial_location":"Koi Pond, Porter College.","latitude":"36.9940","longitude":"-122.0652","recorder_number":"H3-VR","linked_video_filenames":"N/A","Linked_audio_catalog_#":"N/A","notes":"","Audited?":"yes","Audited":"N/A","Orientation":"N/A","":""},{"catalog_number":"088","date":"2019/5/28","start_time":"5:44 PM","recordist_name":"Claudio Sangeroki","colloquial_location":"Bridge in front of Kerr Hall Bus Stop","latitude":"36.9968","longitude":"-122.0642","recorder_number":"H3-VR","linked_video_filenames":"N/A","Linked_audio_catalog_#":"N/A","notes":"","Audited?":"yes","Audited":"N/A","Orientation":"N/A","":""},{"catalog_number":"089","date":"2019/6/5","start_time":"3:06 PM","recordist_name":"Jon Myers","colloquial_location":"McHenry Viaduct","latitude":"36.9963","longitude":"-122.0579","recorder_number":"H3-VR","linked_video_filenames":"N/A","Linked_audio_catalog_#":"N/A","notes":"Footsteps reverberating through bridge, into mics . . . Not airborne sound, more vibratory sound","Audited?":"yes; some speech, pretty innocuous.","Audited":"N/A","Orientation":"N/A","":""},{"catalog_number":"090","date":"2019/6/5","start_time":"3:12 PM","recordist_name":"Jon Myers","colloquial_location":"Upper deck, north-facing side of Hahn Student Services","latitude":"36.9963","longitude":"-122.057","recorder_number":"H3-VR","linked_video_filenames":"N/A","Linked_audio_catalog_#":"N/A","notes":"not much going on.","Audited?":"yes; some speech, pretty innocuous.","Audited":"N/A","Orientation":"N/A","":""},{"catalog_number":"091","date":"2019/6/5","start_time":"3:21 PM","recordist_name":"Jon Myers","colloquial_location":"Gultch below Hagar Drive","latitude":"36.9962","longitude":"-122.0559","recorder_number":"H3-VR","linked_video_filenames":"N/A","Linked_audio_catalog_#":"N/A","notes":"Great single bird.","Audited?":"yes","Audited":"N/A","Orientation":"N/A","":""},{"catalog_number":"092","date":"2019/6/5","start_time":"4:30 PM","recordist_name":"Jon Myers","colloquial_location":"Gultch below Hagar Drive","latitude":"36.9957","longitude":"-122.0563","recorder_number":"H3-VR","linked_video_filenames":"N/A","Linked_audio_catalog_#":"N/A","notes":"Buzzing Cicada?","Audited?":"yes","Audited":"N/A","Orientation":"N/A","":""},{"catalog_number":"093","date":"2019/6/6","start_time":"11:09 AM","recordist_name":"Jon Myers","colloquial_location":"College 10 outside Building DC","latitude":"37.0005","longitude":"-122.0578","recorder_number":"H3-VR","linked_video_filenames":"N/A","Linked_audio_catalog_#":"N/A","notes":"","Audited?":"yes; some speech, pretty innocuous.","Audited":"N/A","Orientation":"N/A","":""},{"catalog_number":"094","date":"2019/5/31","start_time":"3:34 PM","recordist_name":"Albert Peacock","colloquial_location":"Center of Trailer Park, near Kresge college.","latitude":"37.0011","longitude":"-122.0656","recorder_number":"H3-VR","linked_video_filenames":"N/A","Linked_audio_catalog_#":"N/A","notes":"Cicadas!","Audited?":"yes; some speech, pretty innocuous.","Audited":"N/A","Orientation":"N/A","":""},{"catalog_number":"095","date":"2019/5/31","start_time":"3:38 PM","recordist_name":"Albert Peacock","colloquial_location":"Trailer Park on Campus","latitude":"37.0011","longitude":"-122.0656","recorder_number":"H3-VR","linked_video_filenames":"N/A","Linked_audio_catalog_#":"N/A","notes":"Cicadas!","Audited?":"yes; some speech, pretty innocuous.","Audited":"N/A","Orientation":"N/A","":""},{"catalog_number":"096","date":"2019/5/31","start_time":"4:17 PM","recordist_name":"Albert Peacock","colloquial_location":"","latitude":"","longitude":"","recorder_number":"H3-VR","linked_video_filenames":"N/A","Linked_audio_catalog_#":"N/A","notes":"Cicadas!","Audited?":"yes","Audited":"N/A","Orientation":"N/A","":""},{"catalog_number":"097","date":"2019/6/12","start_time":"10:06 AM","recordist_name":"Jon Myers","colloquial_location":"Heller Drive Trailhead","latitude":"37.0034","longitude":"-122.0660","recorder_number":"H3-VR","linked_video_filenames":"N/A","Linked_audio_catalog_#":"N/A","notes":"","Audited?":"yes","Audited":"North","Orientation":"N/A","":""},{"catalog_number":"098","date":"2019/6/12","start_time":"10:21 AM","recordist_name":"Jon Myers","colloquial_location":"Upper Campus","latitude":"37.0047","longitude":"-122.0678","recorder_number":"H3-VR","linked_video_filenames":"N/A","Linked_audio_catalog_#":"N/A","notes":"","Audited?":"yes","Audited":"North","Orientation":"274","":""},{"catalog_number":"099","date":"2019/6/12","start_time":"10:30 AM","recordist_name":"Jon Myers","colloquial_location":"Upper Campus","latitude":"37.0061","longitude":"-122.0685","recorder_number":"H3-VR","linked_video_filenames":"N/A","Linked_audio_catalog_#":"N/A","notes":"chatting humans nearby","Audited?":"yes","Audited":"North","Orientation":"283","":""},{"catalog_number":"100","date":"2019/6/12","start_time":"10:39 AM","recordist_name":"Jon Myers","colloquial_location":"Upper Campus","latitude":"37.0065","longitude":"-122.0665","recorder_number":"H3-VR","linked_video_filenames":"N/A","Linked_audio_catalog_#":"N/A","notes":"train in the distance; great birds","Audited?":"yes","Audited":"North","Orientation":"291","":""},{"catalog_number":"101","date":"2019/6/12","start_time":"10:50 AM","recordist_name":"Jon Myers","colloquial_location":"Upper Campus","latitude":"37.0067","longitude":"-122.0649","recorder_number":"H3-VR","linked_video_filenames":"N/A","Linked_audio_catalog_#":"N/A","notes":"","Audited?":"yes","Audited":"North","Orientation":"296","":""},{"catalog_number":"102","date":"2019/6/16","start_time":"7:37 PM","recordist_name":"Jon Myers","colloquial_location":"Natural Bridges","latitude":"36.9524","longitude":"-122.0578","recorder_number":"H3-VR","linked_video_filenames":"N/A","Linked_audio_catalog_#":"N/A","notes":"","Audited?":"yes","Audited":"North","Orientation":"7","":""},{"catalog_number":"103","date":"2019/6/16","start_time":"8:00 PM","recordist_name":"Jon Myers","colloquial_location":"Homeless community Farm","latitude":"36.9559","longitude":"-122.0625","recorder_number":"H3-VR","linked_video_filenames":"N/A","Linked_audio_catalog_#":"N/A","notes":"","Audited?":"yes","Audited":"North","Orientation":"16","":""},{"catalog_number":"104","date":"2019/6/18","start_time":"7:04 PM","recordist_name":"Jon Myers","colloquial_location":"top of Pogonip","latitude":"37.0016","longitude":"-122.0507","recorder_number":"H3-VR","linked_video_filenames":"N/A","Linked_audio_catalog_#":"N/A","notes":"","Audited?":"yes","Audited":"North","Orientation":"220","":""},{"catalog_number":"105","date":"2019/6/18","start_time":"7:16 PM","recordist_name":"Jon Myers","colloquial_location":"Pogonip","latitude":"37.0041","longitude":"-122.0511","recorder_number":"H3-VR","linked_video_filenames":"N/A","Linked_audio_catalog_#":"N/A","notes":"","Audited?":"yes","Audited":"North","Orientation":"211","":""},{"catalog_number":"106","date":"2019/6/18","start_time":"7:30 PM","recordist_name":"Jon Myers","colloquial_location":"Pogonip","latitude":"37.0044","longitude":"-122.0517","recorder_number":"H3-VR","linked_video_filenames":"N/A","Linked_audio_catalog_#":"N/A","notes":"Crow Duel","Audited?":"yes","Audited":"North","Orientation":"230","":""},{"catalog_number":"107","date":"2019/6/18","start_time":"7:59 PM","recordist_name":"Jon Myers","colloquial_location":"Pogonip","latitude":"37.0012","longitude":"-122.0111","recorder_number":"H3-VR","linked_video_filenames":"N/A","Linked_audio_catalog_#":"N/A","notes":"","Audited?":"yes","Audited":"North","Orientation":"228","":""},{"catalog_number":"108","date":"2019/5/28","start_time":"4:14 PM","recordist_name":"Music 167","colloquial_location":"Empire Cave","latitude":"36.9961","longitude":"-122.0688","recorder_number":"H3-VR","linked_video_filenames":"N/A","Linked_audio_catalog_#":"109, 110, 111, 112,","notes":"","Audited?":"yes","Audited":"N/A","Orientation":"N/A","":""},{"catalog_number":"109","date":"2019/5/28","start_time":"4:14 PM","recordist_name":"Music 167","colloquial_location":"Empire Cave","latitude":"36.9961","longitude":"-122.0688","recorder_number":"H3-VR","linked_video_filenames":"N/A","Linked_audio_catalog_#":"108, 110, 111, 112","notes":"","Audited?":"yes","Audited":"N/A","Orientation":"N/A","":""},{"catalog_number":"110","date":"2019/5/28","start_time":"4:14 PM","recordist_name":"Music 167","colloquial_location":"Empire Cave","latitude":"36.9961","longitude":"-122.0688","recorder_number":"H3-VR","linked_video_filenames":"N/A","Linked_audio_catalog_#":"108, 109, 111, 112","notes":"","Audited?":"yes","Audited":"N/A","Orientation":"N/A","":""},{"catalog_number":"111","date":"2019/5/28","start_time":"4:14 PM","recordist_name":"Music 167","colloquial_location":"Empire Cave","latitude":"36.9961","longitude":"-122.0688","recorder_number":"H3-VR","linked_video_filenames":"N/A","Linked_audio_catalog_#":"108, 109, 110, 112","notes":"","Audited?":"yes","Audited":"N/A","Orientation":"N/A","":""},{"catalog_number":"112","date":"2019/5/28","start_time":"4:14 PM","recordist_name":"Music 167","colloquial_location":"Empire Cave","latitude":"36.9961","longitude":"-122.0688","recorder_number":"H3-VR","linked_video_filenames":"N/A","Linked_audio_catalog_#":"108, 109, 110, 111","notes":"","Audited?":"yes","Audited":"N/A","Orientation":"N/A","":""},{"catalog_number":"113","date":"2019/4/23","start_time":"4:15 PM","recordist_name":"Music 167","colloquial_location":"The Great Meadow","latitude":"36.9927","longitude":"-122.0577","recorder_number":"H3-VR","linked_video_filenames":"N/A","Linked_audio_catalog_#":"114, 115, 116, 117, 118","notes":"Cows rolling through","Audited?":"yes","Audited":"N/A","Orientation":"N/A","":""},{"catalog_number":"114","date":"2019/4/23","start_time":"4:15 PM","recordist_name":"Music 167","colloquial_location":"The Great Meadow","latitude":"36.9927","longitude":"-122.0577","recorder_number":"H3-VR","linked_video_filenames":"N/A","Linked_audio_catalog_#":"113, 115, 116, 117, 118","notes":"Cows rolling through","Audited?":"yes","Audited":"N/A","Orientation":"N/A","":""},{"catalog_number":"115","date":"2019/4/23","start_time":"4:15 PM","recordist_name":"Music 167","colloquial_location":"The Great Meadow","latitude":"36.9927","longitude":"-122.0577","recorder_number":"H3-VR","linked_video_filenames":"N/A","Linked_audio_catalog_#":"113, 114, 116, 117, 118","notes":"Cows rolling through","Audited?":"yes","Audited":"N/A","Orientation":"N/A","":""},{"catalog_number":"116","date":"2019/4/23","start_time":"4:15 PM","recordist_name":"Music 167","colloquial_location":"The Great Meadow","latitude":"36.9927","longitude":"-122.0577","recorder_number":"H3-VR","linked_video_filenames":"N/A","Linked_audio_catalog_#":"113, 114, 115, 117, 118","notes":"Cows rolling through","Audited?":"yes","Audited":"N/A","Orientation":"N/A","":""},{"catalog_number":"117","date":"2019/4/23","start_time":"4:15 PM","recordist_name":"Music 167","colloquial_location":"The Great Meadow","latitude":"36.9927","longitude":"-122.0577","recorder_number":"H3-VR","linked_video_filenames":"N/A","Linked_audio_catalog_#":"113, 114, 115, 116, 118","notes":"Cows rolling through","Audited?":"yes","Audited":"N/A","Orientation":"N/A","":""},{"catalog_number":"118","date":"2019/4/23","start_time":"4:15 PM","recordist_name":"Music 167","colloquial_location":"The Great Meadow","latitude":"36.9927","longitude":"-122.0577","recorder_number":"H3-VR","linked_video_filenames":"N/A","Linked_audio_catalog_#":"113, 114, 115, 116, 117","notes":"Cows rolling through","Audited?":"yes","Audited":"N/A","Orientation":"N/A","":""},{"catalog_number":"119","date":"2019/10/8","start_time":"4:40 PM","recordist_name":"Timothy Min","colloquial_location":"In a little cavern surrounded by trees, beside a man-made tiki [sik]","latitude":"37.0189","longitude":"-122.0789","recorder_number":"H3-VR","linked_video_filenames":"N/A","Linked_audio_catalog_#":"N/A","notes":"","Audited?":"no","Audited":"151","Orientation":"341","":""},{"catalog_number":"120","date":"2019/10/8","start_time":"4:48 PM","recordist_name":"Timothy Min","colloquial_location":"Next to a very big fallen tree with a decent amount of poison oak around; right next to a very big dip in the forrest.","latitude":"37.0193","longitude":"-122.0783","recorder_number":"H3-VR","linked_video_filenames":"N/A","Linked_audio_catalog_#":"N/A","notes":"","Audited?":"no","Audited":"14","Orientation":"337","":""},{"catalog_number":"121","date":"2019/10/29","start_time":"6:29 PM","recordist_name":"Mikki Lim","colloquial_location":"At a table in the Science Hill Red Brick Plaza ","latitude":"36.9991","longitude":"-122.0613","recorder_number":"H3-VR","linked_video_filenames":"N/A","Linked_audio_catalog_#":"N/A","notes":"","Audited?":"no","Audited":"80","Orientation":"252","":""},{"catalog_number":"122","date":"2019/10/30","start_time":"1:20 PM","recordist_name":"Mikki Lim","colloquial_location":"On a bench at the College 9/10 Bus stop (going west). ","latitude":"36.9999","longitude":"-122.0584","recorder_number":"H3-VR","linked_video_filenames":"N/A","Linked_audio_catalog_#":"N/A","notes":"","Audited?":"no","Audited":"136","Orientation":"245","":""},{"catalog_number":"123","date":"2019/10/30","start_time":"6:45 PM","recordist_name":"Mikki Lim","colloquial_location":"Center of the Oakes Bridge","latitude":"36.9895","longitude":"-122.0638","recorder_number":"H3-VR","linked_video_filenames":"N/A","Linked_audio_catalog_#":"N/A","notes":"","Audited?":"","Audited":"169","Orientation":"176","":""},{"catalog_number":"124","date":"2019/10/31","start_time":"9:39 AM","recordist_name":"Mikki Lim","colloquial_location":"On the deck on the 3rd floor of the student union building located at the UC Santa Cruz Quarry.","latitude":"36.9977","longitude":"-122.0554","recorder_number":"","linked_video_filenames":"","Linked_audio_catalog_#":"","notes":"","Audited?":"","Audited":"95","Orientation":"213","":""},{"catalog_number":"125","date":"2019/10/31","start_time":"11:25 AM","recordist_name":"Mikki Lim","colloquial_location":"Inside the Bay Tree Bookstore, on the stairs.","latitude":"36.9981","longitude":"-122.0555","recorder_number":"","linked_video_filenames":"","Linked_audio_catalog_#":"","notes":"","Audited?":"","Audited":"166","Orientation":"211","":""},{"catalog_number":"126","date":"2019/10/31","start_time":"12:21 PM","recordist_name":"Mikki Lim","colloquial_location":"In one of the chairs at Baskin Engineering close to the hallway, next to the Perk coffee bar. ","latitude":"37.0007","longitude":"-122.0629","recorder_number":"","linked_video_filenames":"","Linked_audio_catalog_#":"","notes":"","Audited?":"","Audited":"346","Orientation":"246","":""},{"catalog_number":"127","date":"2019/10/8","start_time":"4:46 PM","recordist_name":"Kieren Breiden","colloquial_location":"Near a bend in the trail on Upper Campus","latitude":"37.0181","longitude":"-122.0762","recorder_number":"","linked_video_filenames":"","Linked_audio_catalog_#":"","notes":"","Audited?":"","Audited":"289","Orientation":"338","":""},{"catalog_number":"128","date":"2019/10/8","start_time":"5:03 PM","recordist_name":"Kieren Breiden","colloquial_location":"Amidst some trees on a Bike Path on Upper Campus.","latitude":"37.0190","longitude":"-122.0763","recorder_number":"","linked_video_filenames":"","Linked_audio_catalog_#":"","notes":"","Audited?":"","Audited":"155","Orientation":"336","":""},{"catalog_number":"129","date":"2019/10/23","start_time":"5:31 PM","recordist_name":"John Jezek","colloquial_location":"On a bike trail near OPERS field, bus stop behind, forest to the front. ","latitude":"36.9952","longitude":"-122.0558","recorder_number":"","linked_video_filenames":"","Linked_audio_catalog_#":"","notes":"","Audited?":"","Audited":"249","Orientation":"198","":""},{"catalog_number":"130","date":"2019/10/23","start_time":"5:47 PM","recordist_name":"John Jezek","colloquial_location":"A little ways away from Cowell college, in the forest, in a little ravine. A deer is at 2 o’clock. A bus stop is at 7 o’clock.","latitude":"36.9982","longitude":"-122.0551","recorder_number":"","linked_video_filenames":"","Linked_audio_catalog_#":"","notes":"","Audited?":"","Audited":"215","Orientation":"205","":""},{"catalog_number":"131","date":"2019/10/24","start_time":"2:45 PM","recordist_name":"John Jezek","colloquial_location":"Somewhere in Pogonip forest, next to Stevenson and Cowell colleges","latitude":"36.9840","longitude":"-122.0409","recorder_number":"","linked_video_filenames":"","Linked_audio_catalog_#":"","notes":"","Audited?":"","Audited":"285","Orientation":"186","":""},{"catalog_number":"132","date":"2019/10/27","start_time":"12:43 PM","recordist_name":"John Jezek","colloquial_location":"On a bike trail near OPERS field, bus stop behind, forest to the front. Power is out, generator to the back left. Trees creaking. ","latitude":"36.9963","longitude":"-122.0561","recorder_number":"","linked_video_filenames":"","Linked_audio_catalog_#":"","notes":"","Audited?":"","Audited":"215","Orientation":"203","":""},{"catalog_number":"133","date":"2019/11/5","start_time":"2:21 PM","recordist_name":"Qian Wen Chen","colloquial_location":"Under a tree near the rear of the library. ","latitude":"36.995","longitude":"-122.0589","recorder_number":"","linked_video_filenames":"","Linked_audio_catalog_#":"","notes":"","Audited?":"","Audited":"261","Orientation":"207","":""},{"catalog_number":"134","date":"2019/11/5","start_time":"2:43 PM","recordist_name":"Qian Wen Chen","colloquial_location":"At the path leading from Thimann Lecture Hall to McHenry Library; near parking lot 141","latitude":"36.9969","longitude":"-122.0608","recorder_number":"","linked_video_filenames":"","Linked_audio_catalog_#":"","notes":"","Audited?":"","Audited":"339","Orientation":"218","":""},{"catalog_number":"135","date":"2019/11/5","start_time":"2:48 PM","recordist_name":"Qian Wen Chen","colloquial_location":"On a path leading from Thimann Lecture Hall to McHenry Library; there is also a parking lot (141) next to this path. ","latitude":"36.9969","longitude":"-122.0608","recorder_number":"","linked_video_filenames":"","Linked_audio_catalog_#":"","notes":"","Audited?":"","Audited":"339","Orientation":"218","":""},{"catalog_number":"136","date":"2019/11/5","start_time":"3:33 PM","recordist_name":"Qian Wen Chen","colloquial_location":"In front of the main entrance of Clark Kerr hall, under a tree.","latitude":"36.9972","longitude":"-122.0618","recorder_number":"","linked_video_filenames":"","Linked_audio_catalog_#":"","notes":"","Audited?":"","Audited":"83","Orientation":"223","":""},{"catalog_number":"137","date":"2019/11/7","start_time":"1:16 PM","recordist_name":"Qian Wen Chen","colloquial_location":"At the middle of the OPERS East field.","latitude":"36.9941","longitude":"-122.0525","recorder_number":"","linked_video_filenames":"","Linked_audio_catalog_#":"","notes":"","Audited?":"","Audited":"167","Orientation":"196","":""},{"catalog_number":"138","date":"2019/11/7","start_time":"2:00 PM","recordist_name":"Qian Wen Chen","colloquial_location":"At the path leading from Oakes academic building to Kerr Road and Meyer Drive; next to OPERS West Gym and Rachel Carson Meadow","latitude":"36.9916","longitude":"-122.063","recorder_number":"","linked_video_filenames":"","Linked_audio_catalog_#":"","notes":"","Audited?":"","Audited":"144","Orientation":"200","":""},{"catalog_number":"139","date":"2019/11/7","start_time":"2:16 PM","recordist_name":"Qian Wen Chen","colloquial_location":"At the path leading from Oakes academic building to Kerr Road and Meyer Drive; next to OPERS West Gym and Rachel Carson Meadow","latitude":"36.9915","longitude":"-122.0629","recorder_number":"","linked_video_filenames":"","Linked_audio_catalog_#":"","notes":"","Audited?":"","Audited":"163","Orientation":"185","":""},{"catalog_number":"140","date":"2019/10/8","start_time":"4:43 PM","recordist_name":"Iam Bhisitkul","colloquial_location":"Wilder Ranch","latitude":"37.0157","longitude":"-122.0834","recorder_number":"","linked_video_filenames":"","Linked_audio_catalog_#":"","notes":"","Audited?":"","Audited":"142","Orientation":"334","":""},{"catalog_number":"141","date":"2019/10/8","start_time":"4:55 PM","recordist_name":"Iam Bhisitkul","colloquial_location":"","latitude":"37.0178","longitude":"-122.0794","recorder_number":"","linked_video_filenames":"","Linked_audio_catalog_#":"","notes":"","Audited?":"","Audited":"19","Orientation":"360","":""},{"catalog_number":"142","date":"2019/10/30","start_time":"1:46 PM","recordist_name":"Eric Corona","colloquial_location":"Santa Cruz Beach; high school group or middle school group is here as well. Lovely day at Santa Cruz Beach.","latitude":"36.9","longitude":"-122","recorder_number":"","linked_video_filenames":"","Linked_audio_catalog_#":"","notes":"might have to throw out, for lack of detail in lat/lon","Audited?":"","Audited":"142","Orientation":"2","":""},{"catalog_number":"143","date":"2019/10/30","start_time":"2:26 PM","recordist_name":"Eric Corona","colloquial_location":"At a rest stop area along the coastline, where runners can rest. In view of the ocean, plants, on top of a cliff. ","latitude":"36.9","longitude":"-122","recorder_number":"","linked_video_filenames":"","Linked_audio_catalog_#":"","notes":"might have to throw out, for lack of detail in lat/lon","Audited?":"","Audited":"44","Orientation":"3","":""},{"catalog_number":"144","date":"2019/10/30","start_time":"2:53 PM","recordist_name":"Eric Corona","colloquial_location":"On a different beach this time, seems to be a dog beach, because there are a lot of dogs here, and a lot of people here, just roaming around with their dogs.","latitude":"36.9","longitude":"-122","recorder_number":"","linked_video_filenames":"","Linked_audio_catalog_#":"","notes":"might have to throw out, for lack of detail in lat/lon","Audited?":"","Audited":"200","Orientation":"5","":""},{"catalog_number":"145","date":"2019/10/30","start_time":"8:26 PM","recordist_name":"Eric Corona","colloquial_location":"On a bench by the OPERS field at UCSC. There is currently training going on for a team.","latitude":"36.9","longitude":"-122","recorder_number":"","linked_video_filenames":"","Linked_audio_catalog_#":"","notes":"might have to throw out, for lack of detail in lat/lon","Audited?":"","Audited":"99","Orientation":"201","":""},{"catalog_number":"146","date":"2019/10/30","start_time":"3:30 PM","recordist_name":"Eric Corona","colloquial_location":"On a bench by some trees around the recital hall area.","latitude":"36.9932","longitude":"-122.0604","recorder_number":"","linked_video_filenames":"","Linked_audio_catalog_#":"","notes":"","Audited?":"","Audited":"355","Orientation":"199","":""},{"catalog_number":"147","date":"2019/10/22","start_time":"8:42 PM","recordist_name":"Nick Uhlig","colloquial_location":"","latitude":"36.9959","longitude":"-122.0666","recorder_number":"","linked_video_filenames":"","Linked_audio_catalog_#":"","notes":"","Audited?":"","Audited":"58","Orientation":"226","":""},{"catalog_number":"148","date":"2019/10/23","start_time":"12:13 PM","recordist_name":"Nick Uhlig","colloquial_location":"Behind the Core West parking lot, in the Redwoods.","latitude":"36.9985","longitude":"-122.0627","recorder_number":"","linked_video_filenames":"","Linked_audio_catalog_#":"","notes":"","Audited?":"","Audited":"254","Orientation":"232","":""},{"catalog_number":"149","date":"2019/10/24","start_time":"4:02 PM","recordist_name":"Nick Uhlig","colloquial_location":"In some sort of depression or collapsed sinkhole or otherwise dip in the hill, most immediately behind the music center, in that stretch of meadow. ","latitude":"36.9919","longitude":"-122.0587","recorder_number":"","linked_video_filenames":"","Linked_audio_catalog_#":"","notes":"","Audited?":"","Audited":"20","Orientation":"190","":""},{"catalog_number":"150","date":"2019/10/26","start_time":"9:37 PM","recordist_name":"Nick Uhlig","colloquial_location":"Under the bridge between Kresge and Kerr Hall.","latitude":"36.9964","longitude":"-122.0645","recorder_number":"","linked_video_filenames":"","Linked_audio_catalog_#":"","notes":"","Audited?":"","Audited":"64","Orientation":"231","":""},{"catalog_number":"151","date":"2019/12/4","start_time":"9:43 PM","recordist_name":"Anthony Nechayev","colloquial_location":"Right off a little cliff cropping off of East Cliff Drive, overlooking the ocean. ","latitude":"36.9643","longitude":"-122.0164","recorder_number":"","linked_video_filenames":"","Linked_audio_catalog_#":"","notes":"","Audited?":"","Audited":"225","Orientation":"0","":""},{"catalog_number":"152","date":"2019/12/4","start_time":"9:48 PM","recordist_name":"Anthony Nechayev","colloquial_location":"Overlooking a cliff, overlooking the ocean, right off of East Cliff Drive, near Seabright.","latitude":"36.9641","longitude":"-122.0129","recorder_number":"","linked_video_filenames":"","Linked_audio_catalog_#":"","notes":"","Audited?":"","Audited":"180","Orientation":"0","":""},{"catalog_number":"153","date":"2019/12/5","start_time":"6:59 PM","recordist_name":"Anthony Nechayev","colloquial_location":"Right to the left of the Porter Squiggle, on UCSC campus.","latitude":"36.9928","longitude":"-122.0646","recorder_number":"","linked_video_filenames":"","Linked_audio_catalog_#":"","notes":"","Audited?":"","Audited":"180","Orientation":"207","":""},{"catalog_number":"154","date":"2019/12/5","start_time":"7:23 PM","recordist_name":"Anthony Nechayev","colloquial_location":"In the plaza of Rachel Carson College.","latitude":"36.9913","longitude":"-122.0648","recorder_number":"","linked_video_filenames":"","Linked_audio_catalog_#":"","notes":"","Audited?":"","Audited":"315","Orientation":"188","":""},{"catalog_number":"155","date":"2019/12/5","start_time":"8:13 PM","recordist_name":"Anthony Nechayev","colloquial_location":"On the San Lorenzo River Bridge.","latitude":"36.9694","longitude":"-122.0230","recorder_number":"","linked_video_filenames":"","Linked_audio_catalog_#":"","notes":"","Audited?":"","Audited":"270","Orientation":"3","":""},{"catalog_number":"156","date":"2019/12/5","start_time":"8:27 PM","recordist_name":"Anthony Nechayev","colloquial_location":"In front of Betty’s Noodle Shop, in the downtown area of Santa Cruz.","latitude":"36.9708","longitude":"-122.0253","recorder_number":"","linked_video_filenames":"","Linked_audio_catalog_#":"","notes":"","Audited?":"","Audited":"225","Orientation":"7","":""},{"catalog_number":"157","date":"2019/12/5","start_time":"8:38 PM","recordist_name":"Anthony Nechayev","colloquial_location":"In the record store in the downtown area of Santa Cruz","latitude":"36.9707","longitude":"-122.0256","recorder_number":"","linked_video_filenames":"","Linked_audio_catalog_#":"","notes":"","Audited?":"","Audited":"180","Orientation":"7","":""},{"catalog_number":"158","date":"2019/10/20","start_time":"4:10 PM","recordist_name":"Drew Towan","colloquial_location":"Somewhere in a Creekbed behind the Porter Meadows, in the woods. ","latitude":"36.9927","longitude":"-122.0707","recorder_number":"","linked_video_filenames":"","Linked_audio_catalog_#":"","notes":"","Audited?":"","Audited":"320","Orientation":"","":""},{"catalog_number":"159","date":"2019/10/20","start_time":"5:33 PM","recordist_name":"Drew Towan","colloquial_location":"In the field across fro Oakes and Empire Grade. ","latitude":"36.9827","longitude":"-122.093","recorder_number":"","linked_video_filenames":"","Linked_audio_catalog_#":"","notes":"","Audited?":"","Audited":"31","Orientation":"","":""},{"catalog_number":"160","date":"2019/11/2","start_time":"3:53 PM","recordist_name":"Drew Towan","colloquial_location":"Somewhere off the Pogonip Trail.","latitude":"36.9996","longitude":"-122.0462","recorder_number":"","linked_video_filenames":"","Linked_audio_catalog_#":"","notes":"","Audited?":"","Audited":"224","Orientation":"","":""},{"catalog_number":"161","date":"2019/12/4","start_time":"10:01 PM","recordist_name":"Yafeet Garcia","colloquial_location":"At the Rachel Carson College Garden, next to the succulents. ","latitude":"36.9913","longitude":"-122.0659","recorder_number":"","linked_video_filenames":"","Linked_audio_catalog_#":"","notes":"","Audited?":"","Audited":"314","Orientation":"195","":""},{"catalog_number":"162","date":"2019/12/4","start_time":"10:19 PM","recordist_name":"Yafeet Garcia","colloquial_location":"Oakes field, near apartments, near a garden. Grass fields, pretty open, surrounded by trees. ","latitude":"36.9885","longitude":"-122.0626","recorder_number":"","linked_video_filenames":"","Linked_audio_catalog_#":"","notes":"","Audited?":"","Audited":"","Orientation":"176","":""},{"catalog_number":"163","date":"2019/12/5","start_time":"1:56 PM","recordist_name":"Yafeet Garcia","colloquial_location":"Near College 9/10, under the bridge, surrounded by graffiti, at the highest point on a dirt pile. To the left a little river, to the right a caged-off tunnel. ","latitude":"37.0001","longitude":"-122.0598","recorder_number":"","linked_video_filenames":"","Linked_audio_catalog_#":"","notes":"","Audited?":"","Audited":"78","Orientation":"248","":""},{"catalog_number":"164","date":"2019/12/9","start_time":"12:44 PM","recordist_name":"Yafeet Garcia","colloquial_location":"Back of the music center, in view of the bike trails. Its pretty nice out right now, fog everywhere, kinda pretty, beautiful. There’s a little pond, down atop this little hill. Birds everywhere right now. ","latitude":"36.9913","longitude":"-122.0606","recorder_number":"","linked_video_filenames":"","Linked_audio_catalog_#":"","notes":"","Audited?":"","Audited":"320","Orientation":"197","":""},{"catalog_number":"165","date":"2019/12/9","start_time":"12:53 PM","recordist_name":"Yafeet Garcia","colloquial_location":"On a weird downhill, next to a body of water, not sure if it is a pond, I’m assuming it is though, based on the vegetation around it. There are a lot of bushes and stuff. There are a lot of birds and bird nests around it, and there’s also been deer coming here, drinking water, so I’m assuming its a source of water they tend to come to.  In a little ditch essentially, surrounded by walls or hills, at the very bottom of it. Really muddy, a lot of deer poop. ","latitude":"36.9908","longitude":"-122.0601","recorder_number":"","linked_video_filenames":"","Linked_audio_catalog_#":"","notes":"","Audited?":"","Audited":"323","Orientation":"192","":""},{"catalog_number":"166","date":"2019/11/20","start_time":"8:40 PM","recordist_name":"Ronan Mauldin","colloquial_location":"On the side of a hill facing Oakes College, just about 100 m out from the tree-line on the right side, facing the music center. ","latitude":"36.9923","longitude":"-122.0574","recorder_number":"","linked_video_filenames":"","Linked_audio_catalog_#":"","notes":"","Audited?":"","Audited":"22","Orientation":"196","":""},{"catalog_number":"167","date":"2019/11/21","start_time":"9:17 AM","recordist_name":"Ronan Mauldin","colloquial_location":"Just off the main road, on the opposite side from the East Field House, in a depression.","latitude":"36.9961","longitude":"-122.0562","recorder_number":"","linked_video_filenames":"","Linked_audio_catalog_#":"","notes":"","Audited?":"","Audited":"162","Orientation":"201","":""},{"catalog_number":"168","date":"2019/11/23","start_time":"10:50 PM","recordist_name":"Ronan Mauldin","colloquial_location":"In the Great Meadow, further down on the south side of campus, a couple football fields off from the main road. ","latitude":"36.9894","longitude":"-122.0563","recorder_number":"","linked_video_filenames":"","Linked_audio_catalog_#":"","notes":"","Audited?":"","Audited":"178","Orientation":"167","":""},{"catalog_number":"169","date":"2019/11/24","start_time":"10:30 PM","recordist_name":"Ronan Mauldin","colloquial_location":"Just above the village housing.","latitude":"36.9893","longitude":"-122.0562","recorder_number":"","linked_video_filenames":"","Linked_audio_catalog_#":"","notes":"","Audited?":"","Audited":"163","Orientation":"171","":""},{"catalog_number":"170","date":"2019/11/24","start_time":"11:37 PM","recordist_name":"Ronan Mauldin","colloquial_location":"Just in between the disability service building and the main road, on the top of a depression. ","latitude":"36.9955","longitude":"-122.0564","recorder_number":"","linked_video_filenames":"","Linked_audio_catalog_#":"","notes":"","Audited?":"","Audited":"104","Orientation":"198","":""},{"catalog_number":"171","date":"2019/11/25","start_time":"12:11 AM","recordist_name":"Ronan Mauldin","colloquial_location":"On the east field. ","latitude":"36.994","longitude":"-122.0528","recorder_number":"","linked_video_filenames":"","Linked_audio_catalog_#":"","notes":"","Audited?":"","Audited":"334","Orientation":"200","":""},{"catalog_number":"172","date":"2019/11/25","start_time":"8:35 PM","recordist_name":"Ronan Mauldin","colloquial_location":"Back on the large rock, at the center of the Quarry. ","latitude":"36.998","longitude":"-122.0567","recorder_number":"","linked_video_filenames":"","Linked_audio_catalog_#":"","notes":"","Audited?":"","Audited":"268","Orientation":"211","":""},{"catalog_number":"173","date":"2019/11/25","start_time":"9:18 PM","recordist_name":"Ronan Mauldin","colloquial_location":"Just off the east field in a little ‘nest’ of dead bushes and a pile of rocks. ","latitude":"36.9935","longitude":"-122.0513","recorder_number":"","linked_video_filenames":"","Linked_audio_catalog_#":"","notes":"","Audited?":"","Audited":"277","Orientation":"192","":""},{"catalog_number":"174","date":"2019/11/26","start_time":"10:08 AM","recordist_name":"Ronan Mauldin","colloquial_location":"Just behind the Engineering / Science Library, on a slope downwards toward Kerr Hall. ","latitude":"36.9972","longitude":"-122.0607","recorder_number":"","linked_video_filenames":"","Linked_audio_catalog_#":"","notes":"","Audited?":"","Audited":"209","Orientation":"225","":""},{"catalog_number":"175","date":"2019/11/26","start_time":"3:04 PM","recordist_name":"Ronan Mauldin","colloquial_location":"Just behind Rachel Carson dining hall, next to the Rachel Carson Garden.","latitude":"36.9916","longitude":"-122.0658","recorder_number":"","linked_video_filenames":"","Linked_audio_catalog_#":"","notes":"","Audited?":"","Audited":"5","Orientation":"200","":""},{"catalog_number":"176","date":"","start_time":"3:42 PM","recordist_name":"Qian Wen Chen","colloquial_location":"The main entrance of the Digital Arts Center next to a tree.","latitude":"36.99","longitude":"-122.06","recorder_number":"","linked_video_filenames":"","Linked_audio_catalog_#":"","notes":"","Audited?":"","Audited":"","Orientation":"204","":""},{"catalog_number":"177","date":"2019/12/03","start_time":"4:00 PM","recordist_name":"Qian Wen Chen","colloquial_location":"Kerr Road next to parking lot 126","latitude":"36.99","longitude":"-122.06","recorder_number":"NT-SF1","linked_video_filenames":"","Linked_audio_catalog_#":"","notes":"","Audited?":"","Audited":"294","Orientation":"200","":""},{"catalog_number":"178","date":"2019/12/04","start_time":"11:00 AM","recordist_name":"Qian Wen Chen","colloquial_location":"2nd Floor of Student Union","latitude":"36.99","longitude":"-132.05","recorder_number":"NT-SF1","linked_video_filenames":"","Linked_audio_catalog_#":"","notes":"","Audited?":"","Audited":"93","Orientation":"218","":""},{"catalog_number":"179","date":"2019/12/04","start_time":"11:22 AM","recordist_name":"Qian Wen Chen","colloquial_location":"Southwest side of the library","latitude":"36.99","longitude":"-122.05","recorder_number":"NT-SF1","linked_video_filenames":"","Linked_audio_catalog_#":"","notes":"","Audited?":"","Audited":"218","Orientation":"208","":""},{"catalog_number":"180","date":"2019/12/04","start_time":"12:03 PM","recordist_name":"Qian Wen Chen","colloquial_location":"Kerr Hall main entrance","latitude":"36.99","longitude":"-122.06","recorder_number":"NT-SF1","linked_video_filenames":"","Linked_audio_catalog_#":"","notes":"","Audited?":"","Audited":"281","Orientation":"222","":""},{"catalog_number":"181","date":"2019/11/6","start_time":"7:17 PM","recordist_name":"Ronan Mauldin","colloquial_location":"Edge of a forest next to the plains by music department","latitude":"36.9894","longitude":"-122.0615","recorder_number":"NT-SF1","linked_video_filenames":"","Linked_audio_catalog_#":"","notes":"","Audited?":"","Audited":"SE","Orientation":"174","":""},{"catalog_number":"182","date":"2019/11/7","start_time":"7:09 PM","recordist_name":"Ronan Mauldin","colloquial_location":"Under a large tree on the edge of a depression between Kresge and the main road","latitude":"36.9975","longitude":"-122.0651","recorder_number":"NT-SF1","linked_video_filenames":"","Linked_audio_catalog_#":"","notes":"","Audited?":"","Audited":"40","Orientation":"219","":""},{"catalog_number":"183","date":"2019/11/8","start_time":"9:21 PM","recordist_name":"Ronan Mauldin","colloquial_location":"On top of the large rock in the center of quarry plaza","latitude":"36.9987","longitude":"-122.0568","recorder_number":"NT-SF1","linked_video_filenames":"","Linked_audio_catalog_#":"","notes":"","Audited?":"","Audited":"262","Orientation":"210","":""},{"catalog_number":"184","date":"2019/11/10","start_time":"8:24 PM","recordist_name":"Ronan Mauldin","colloquial_location":"500m out from the music center in the meadow on a hill","latitude":"36.9902","longitude":"-122.0596","recorder_number":"NT-SF1","linked_video_filenames":"","Linked_audio_catalog_#":"","notes":"","Audited?":"","Audited":"133","Orientation":"191","":""},{"catalog_number":"185","date":"2019/11/11","start_time":"9:12 AM","recordist_name":"Ronan Mauldin","colloquial_location":"On a slope just between music center and the hill","latitude":"36.9961","longitude":"-122.0609","recorder_number":"NT-SF1","linked_video_filenames":"","Linked_audio_catalog_#":"","notes":"","Audited?":"","Audited":"65","Orientation":"213","":""},{"catalog_number":"186","date":"2019/11/11","start_time":"3:56 PM","recordist_name":"Ronan Mauldin","colloquial_location":"In a forest sitting on a fallen tree above 9 and 10","latitude":"37.0044","longitude":"-122.0615","recorder_number":"NT-SF1","linked_video_filenames":"","Linked_audio_catalog_#":"","notes":"","Audited?":"","Audited":"59","Orientation":"299","":""},{"catalog_number":"187","date":"2019/11/11","start_time":"9:25 PM","recordist_name":"Ronan Mauldin","colloquial_location":"500m out from the music center, extremely foggy","latitude":"36.9902","longitude":"-122.0594","recorder_number":"NT-SF1","linked_video_filenames":"","Linked_audio_catalog_#":"","notes":"","Audited?":"","Audited":"149","Orientation":"189","":""},{"catalog_number":"188","date":"2019/12/04","start_time":"8:08 PM","recordist_name":"Edgar Montenegro","colloquial_location":"Facing east on college 10 road","latitude":"37.001","longitude":"-122.059","recorder_number":"NT-SF1","linked_video_filenames":"","Linked_audio_catalog_#":"","notes":"","Audited?":"","Audited":"135","Orientation":"250","":""},{"catalog_number":"189","date":"2019/12/04","start_time":"3:49 PM","recordist_name":"Edgar Montenegro","colloquial_location":"Corner of Pacific and Lincoln in downtown","latitude":"36.9727","longitude":"-122.0258","recorder_number":"NT-SF1","linked_video_filenames":"","Linked_audio_catalog_#":"","notes":"","Audited?":"","Audited":"318","Orientation":"6","":""},{"catalog_number":"190","date":"2019/12/04","start_time":"1:05 PM","recordist_name":"Edgar Montenegro","colloquial_location":"On the north facing stairwell, third floor of a residence hall","latitude":"37.0023","longitude":"-122.0599","recorder_number":"H3-VR","linked_video_filenames":"","Linked_audio_catalog_#":"","notes":"","Audited?":"","Audited":"345","Orientation":"256","":""},{"catalog_number":"191","date":"2019/12/04","start_time":"6:26 PM","recordist_name":"Edgar Montenegro","colloquial_location":"On second floor of Social Sciences II Building","latitude":"37.0017","longitude":"-122.0587","recorder_number":"H3-VR","linked_video_filenames":"","Linked_audio_catalog_#":"","notes":"","Audited?":"","Audited":"337","Orientation":"246","":""},{"catalog_number":"192","date":"2019/12/05","start_time":"9:37 AM","recordist_name":"Edgar Montenegro","colloquial_location":"Facing south on top of the porter squiggle","latitude":"36.9932","longitude":"-122.0651","recorder_number":"H3-VR","linked_video_filenames":"","Linked_audio_catalog_#":"","notes":"","Audited?":"","Audited":"164","Orientation":"215","":""},{"catalog_number":"193","date":"2019/12/05","start_time":"12:22 PM","recordist_name":"Edgar Montenegro","colloquial_location":"On a bench on top of the Santa Cruz pier just above the waves","latitude":"36.9619","longitude":"-122.0227","recorder_number":"H3-VR","linked_video_filenames":"","Linked_audio_catalog_#":"","notes":"","Audited?":"","Audited":"219","Orientation":"2","":""},{"catalog_number":"194","date":"2020/01/15","start_time":"5:00 PM","recordist_name":"Andrew Gordon","colloquial_location":"In a field below the west remote parking lot facing the coast","latitude":"","longitude":"","recorder_number":"H3-VR","linked_video_filenames":"","Linked_audio_catalog_#":"","notes":"Where did the attribution come from? Worth tracking down? (or just throw out?)","Audited?":"","Audited":"","Orientation":"","":""},{"catalog_number":"195","date":"2020/01/15","start_time":"9:50 PM","recordist_name":"Andrew Gordon","colloquial_location":"Below the arch of the porter squiggle facing the coast on a misty day","latitude":"36.9932","longitude":"-122.0651","recorder_number":"H3-VR","linked_video_filenames":"","Linked_audio_catalog_#":"","notes":"","Audited?":"yes (should probably not go on site, fair dose of obscenities)","Audited":"187","Orientation":"215","":""},{"catalog_number":"196","date":"2020/01/16","start_time":"9:51 AM","recordist_name":"Andrew Gordon","colloquial_location":"Behind McHenry facing a sunken, dew-ful forest area","latitude":"36.9958","longitude":"-122.0585","recorder_number":"H3-VR","linked_video_filenames":"","Linked_audio_catalog_#":"","notes":"","Audited?":"","Audited":"120","Orientation":"208","":""},{"catalog_number":"197","date":"2020/01/16","start_time":"11:00 AM","recordist_name":"Andrew Gordon","colloquial_location":"On lush green pasture for cows facing out towards the ocean","latitude":"36.9929","longitude":"-122.0579","recorder_number":"H3-VR","linked_video_filenames":"","Linked_audio_catalog_#":"","notes":"","Audited?":"","Audited":"201","Orientation":"147","":""},{"catalog_number":"198","date":"2020/01/16","start_time":"11:27 AM","recordist_name":"Andrew Gordon","colloquial_location":"On a little grassy knoll looking down the coast line over a family of deer close by","latitude":"36.9909","longitude":"-122.0594","recorder_number":"H3-VR","linked_video_filenames":"","Linked_audio_catalog_#":"","notes":"","Audited?":"","Audited":"104","Orientation":"191","":""},{"catalog_number":"199","date":"2019/10/05","start_time":"11:25 AM","recordist_name":"Jon Myers","colloquial_location":"Off the path at the cow pasture on the edge of the woods","latitude":"36.991","longitude":"-122.0565","recorder_number":"NT-SF1","linked_video_filenames":"","Linked_audio_catalog_#":"","notes":"","Audited?":"","Audited":"116","Orientation":"184","":""},{"catalog_number":"200","date":"2019/10/05","start_time":"11:58 AM","recordist_name":"Jon Myers","colloquial_location":"On path near the quarry, drainage pipe on one side and chain link fence on the other","latitude":"36.9902","longitude":"-122.0559","recorder_number":"NT-SF1","linked_video_filenames":"","Linked_audio_catalog_#":"","notes":"","Audited?":"","Audited":"325","Orientation":"168","":""},{"catalog_number":"201","date":"2019/10/05","start_time":"12:25 PM","recordist_name":"Jon Myers","colloquial_location":"Bottom of gultch by the water pipe and quarry","latitude":"36.9866","longitude":"-122.0476","recorder_number":"NT-SF1","linked_video_filenames":"","Linked_audio_catalog_#":"","notes":"","Audited?":"","Audited":"315","Orientation":"174","":""},{"catalog_number":"202","date":"2019/10/05","start_time":"6:16 PM","recordist_name":"Jon Myers","colloquial_location":"","latitude":"37.0035","longitude":"-122.0634","recorder_number":"NT-SF1","linked_video_filenames":"","Linked_audio_catalog_#":"","notes":"","Audited?":"","Audited":"345","Orientation":"281","":""},{"catalog_number":"203","date":"2019/10/05","start_time":"6:40 PM","recordist_name":"Jon Myers","colloquial_location":"","latitude":"37.0032","longitude":"-122.0643","recorder_number":"NT-SF1","linked_video_filenames":"","Linked_audio_catalog_#":"","notes":"","Audited?":"","Audited":"128","Orientation":"275","":""},{"catalog_number":"204","date":"2019/10/05","start_time":"7:10 PM","recordist_name":"Jon Myers","colloquial_location":"At dusk, by the teepee.","latitude":"36.9938","longitude":"-122.0582","recorder_number":"NT-SF1","linked_video_filenames":"","Linked_audio_catalog_#":"","notes":"","Audited?":"","Audited":"34","Orientation":"197","":""},{"catalog_number":"205","date":"2019/10/08","start_time":"4:42 PM","recordist_name":"Jon Myers","colloquial_location":" ","latitude":"37.0182","longitude":"-122.0756","recorder_number":"NT-SF1","linked_video_filenames":"","Linked_audio_catalog_#":"","notes":"","Audited?":"","Audited":"40","Orientation":"338","":""},{"catalog_number":"206","date":"2019/10/08","start_time":"4:52 PM","recordist_name":"Jon Myers","colloquial_location":"","latitude":"37.0198","longitude":"-122.0753","recorder_number":"NT-SF1","linked_video_filenames":"","Linked_audio_catalog_#":"","notes":"","Audited?":"","Audited":"300","Orientation":"340","":""},{"catalog_number":"207","date":"2019/10/16","start_time":"2:30 PM","recordist_name":"Jon Myers ","colloquial_location":"A dry streamed next to the path between the Music Center and Oakes.","latitude":"36.9915","longitude":"-122.0625","recorder_number":"NT-SF1","linked_video_filenames":"","Linked_audio_catalog_#":"","notes":"","Audited?":"","Audited":"168","Orientation":"188","":""},{"catalog_number":"208","date":"2019/10/28","start_time":"5:25 PM","recordist_name":"Jon Myers","colloquial_location":"","latitude":"37.0066","longitude":"-122.0666","recorder_number":"NT-SF1","linked_video_filenames":"","Linked_audio_catalog_#":"","notes":"","Audited?":"","Audited":"339","Orientation":"297","":""},{"catalog_number":"209","date":"2019/10/28","start_time":"5:46 PM","recordist_name":"Jon Myers","colloquial_location":"In upper campus. ","latitude":"37.0071","longitude":"-122.0645","recorder_number":"NT-SF1","linked_video_filenames":"","Linked_audio_catalog_#":"","notes":"","Audited?":"","Audited":"344","Orientation":"306","":""},{"catalog_number":"210","date":"2019/10/28","start_time":"6:00 PM","recordist_name":"Jon Myers","colloquial_location":"","latitude":"37.0082","longitude":"-122.0656","recorder_number":"NT-SF1","linked_video_filenames":"","Linked_audio_catalog_#":"N/A","notes":"","Audited?":"","Audited":"289","Orientation":"310","":""},{"catalog_number":"211","date":"2019/11/2","start_time":"5:56 PM","recordist_name":"Jon Myers","colloquial_location":"Some sort of man-made pond near the coast between highway one and the coast","latitude":"36.9677","longitude":"-122.1205","recorder_number":"NT-SF1","linked_video_filenames":"","Linked_audio_catalog_#":"N/A","notes":"","Audited?":"","Audited":"177","Orientation":"10","":""},{"catalog_number":"212","date":"2019/11/2","start_time":"6:28 PM","recordist_name":"Jon Myers","colloquial_location":"","latitude":"36.967","longitude":"-122.1231","recorder_number":"NT-SF1","linked_video_filenames":"","Linked_audio_catalog_#":"N/A","notes":"","Audited?":"","Audited":"228","Orientation":"4","":""},{"catalog_number":"213","date":"2019/11/3","start_time":"5:34 PM","recordist_name":"Jon Myers","colloquial_location":"","latitude":"36.9987","longitude":"-122.0485","recorder_number":"NT-SF1","linked_video_filenames":"","Linked_audio_catalog_#":"","notes":"","Audited?":"","Audited":"270","Orientation":"151","":""},{"catalog_number":"214","date":"2019/11/8","start_time":"4:26 PM","recordist_name":"Jon Myers","colloquial_location":"","latitude":"36.9833","longitude":"-122.1544","recorder_number":"NT-SF1","linked_video_filenames":"","Linked_audio_catalog_#":"","notes":"","Audited?":"","Audited":"105","Orientation":"4","":""},{"catalog_number":"215","date":"2019/12/8","start_time":"5:02 PM","recordist_name":"Jon Myers","colloquial_location":"","latitude":"36.9805","longitude":"-122.1550","recorder_number":"NT-SF1","linked_video_filenames":"","Linked_audio_catalog_#":"","notes":"","Audited?":"","Audited":"336","Orientation":"0","":""},{"catalog_number":"216","date":"2019/11/8","start_time":"5:32 PM","recordist_name":"Jon Myers","colloquial_location":"","latitude":"36.9834","longitude":"-122.1543","recorder_number":"NT-SF1","linked_video_filenames":"","Linked_audio_catalog_#":"","notes":"","Audited?":"","Audited":"25","Orientation":"","":""},{"catalog_number":"217","date":"2019/11/15","start_time":"4:15 PM","recordist_name":"Jon Myers","colloquial_location":"","latitude":"37.0310","longitude":"-122.0564","recorder_number":"NT-SF1","linked_video_filenames":"","Linked_audio_catalog_#":"","notes":"","Audited?":"","Audited":"296","Orientation":"70","":""},{"catalog_number":"218","date":"2019/11/15","start_time":"4:44 PM","recordist_name":"Jon Myers","colloquial_location":"","latitude":"37.0344","longitude":"-122.0584","recorder_number":"NT-SF1","linked_video_filenames":"","Linked_audio_catalog_#":"","notes":"","Audited?":"","Audited":"290","Orientation":"77","":""},{"catalog_number":"219","date":"2019/11/22","start_time":"4:08 PM","recordist_name":"Jon Myers","colloquial_location":"In the middle of some scrubby chaparral area in Henry Cowell State Park, not far from the campground. ","latitude":"37.0330","longitude":"-122.0463","recorder_number":"NT-SF1","linked_video_filenames":"","Linked_audio_catalog_#":"","notes":"","Audited?":"","Audited":"194","Orientation":"188","":""},{"catalog_number":"220","date":"2019/11/22","start_time":"4:42 PM","recordist_name":"Jon Myers","colloquial_location":"On top of a hollowed-out redwood, future fairy ring, near this little creek in Henry Cowell State Park.","latitude":"37.0338","longitude":"-122.0489","recorder_number":"NT-SF1","linked_video_filenames":"","Linked_audio_catalog_#":"","notes":"","Audited?":"","Audited":"29","Orientation":"245","":""},{"catalog_number":"221","date":"2019/12/7","start_time":"12:47 PM","recordist_name":"Jon Myers","colloquial_location":"","latitude":"36.9626","longitude":"-122.0027","recorder_number":"NT-SF1","linked_video_filenames":"","Linked_audio_catalog_#":"","notes":"","Audited?":"","Audited":"94","Orientation":"3","":""},{"catalog_number":"222","date":"2019/12/7","start_time":"1:17 PM","recordist_name":"Jon Myers ","colloquial_location":"","latitude":"36.9645","longitude":"-122.0031","recorder_number":"NT-SF1","linked_video_filenames":"","Linked_audio_catalog_#":"","notes":"","Audited?":"","Audited":"242","Orientation":"3","":""},{"catalog_number":"223","date":"2019/12/11","start_time":"11:29 PM","recordist_name":"Jon Myers","colloquial_location":"","latitude":"36.9696","longitude":"-122.0121","recorder_number":"NT-SF1","linked_video_filenames":"","Linked_audio_catalog_#":"","notes":"","Audited?":"","Audited":"215","Orientation":"13","":""},{"catalog_number":"224","date":"2019/12/12","start_time":"11:47 PM","recordist_name":"Jon Myers","colloquial_location":"Between a little creek and a gated housing area.","latitude":"36.9696","longitude":"-122.0124","recorder_number":"NT-SF1","linked_video_filenames":"","Linked_audio_catalog_#":"","notes":"","Audited?":"","Audited":"157","Orientation":"9","":""},{"catalog_number":"225","date":"2019/12/20","start_time":"3:15 PM","recordist_name":"Jon Myers","colloquial_location":"By a stream in the upper part of Wilder Ranch, near Empire Grade. ","latitude":"36.9889","longitude":"-122.0703","recorder_number":"NT-SF1","linked_video_filenames":"","Linked_audio_catalog_#":"","notes":"","Audited?":"","Audited":"37","Orientation":"149","":""},{"catalog_number":"226","date":"2019/12/20","start_time":"3:32 PM","recordist_name":"Jon Myers","colloquial_location":"In Wilder Ranch, along a trail above some sort of creek. ","latitude":"36.9900","longitude":"-122.0713","recorder_number":"NT-SF1","linked_video_filenames":"","Linked_audio_catalog_#":"","notes":"","Audited?":"","Audited":"214","Orientation":"143","":""},{"catalog_number":"227","date":"2019/12/20","start_time":"3:47 PM","recordist_name":"Jon Myers","colloquial_location":"On a hill that is carved out on both sides by creeks, in Wilder Ranch. ","latitude":"36.9897","longitude":"-122.0725","recorder_number":"NT-SF1","linked_video_filenames":"","Linked_audio_catalog_#":"","notes":"","Audited?":"","Audited":"72","Orientation":"131","":""},{"catalog_number":"228","date":"2019/12/31","start_time":"4:30 PM","recordist_name":"Jon Myers","colloquial_location":"In Ana Nuevo state park, on the beach near some Elephant Seals.  ","latitude":"37.1166","longitude":"-122.3076","recorder_number":"NT-SF1","linked_video_filenames":"","Linked_audio_catalog_#":"","notes":"","Audited?":"","Audited":"188","Orientation":"8","":""},{"catalog_number":"229","date":"2020/1/13","start_time":"5:14 PM","recordist_name":"Elliot Frank Hess","colloquial_location":"At Opers on the field near the batting cage, going down toward the soccer field. ","latitude":"36.9934","longitude":"-122.0523","recorder_number":"H3-VR","linked_video_filenames":"","Linked_audio_catalog_#":"","notes":"","Audited?":"","Audited":"","Orientation":"","":""},{"catalog_number":"230","date":"2020/1/13","start_time":"6:00 PM","recordist_name":"Elliot Frank Hess","colloquial_location":"Cowell Library, between two book shelves","latitude":"36.9970","longitude":"-122.0535","recorder_number":"H3-VR","linked_video_filenames":"","Linked_audio_catalog_#":"","notes":"","Audited?":"","Audited":"","Orientation":"","":""},{"catalog_number":"231","date":"2020/1/13","start_time":"6:15 PM","recordist_name":"Elliot Frank Hess","colloquial_location":"OPERS East Gym, badmitton game","latitude":"36.9946","longitude":"-122.0548","recorder_number":"H3-VR","linked_video_filenames":"","Linked_audio_catalog_#":"","notes":"","Audited?":"","Audited":"","Orientation":"","":""},{"catalog_number":"232","date":"2020/1/13","start_time":"6:24 PM","recordist_name":"Elliot Frank Hess","colloquial_location":"OPERS Basketball Courts","latitude":"36.9950","longitude":"-122.0546","recorder_number":"H3-VR","linked_video_filenames":"","Linked_audio_catalog_#":"","notes":"","Audited?":"","Audited":"","Orientation":"","":""},{"catalog_number":"233","date":"2020/1/17","start_time":"12:54 PM","recordist_name":"Brock Stuessi","colloquial_location":"Meeting point of uphill and downhill bike paths at music center","latitude":"36.9923","longitude":"-122.0602","recorder_number":"H3-VR","linked_video_filenames":"","Linked_audio_catalog_#":"","notes":"","Audited?":"","Audited":"132","Orientation":"200","":""},{"catalog_number":"234","date":"2020/1/17","start_time":"1:04 PM","recordist_name":"Brock Stuessi","colloquial_location":"In front of the unoccupied university house. ","latitude":"36.9919","longitude":"-122.0616","recorder_number":"H3-VR","linked_video_filenames":"","Linked_audio_catalog_#":"","notes":"","Audited?":"","Audited":"304","Orientation":"200","":""},{"catalog_number":"235","date":"2020/1/17","start_time":"1:14 PM","recordist_name":"Brock Stuessi","colloquial_location":"In the trees in front of Fort Kush. ","latitude":"36.9909","longitude":"-122.0618","recorder_number":"H3-VR","linked_video_filenames":"","Linked_audio_catalog_#":"","notes":"","Audited?":"","Audited":"171","Orientation":"187","":""},{"catalog_number":"236","date":"2020/1/17","start_time":"1:28 PM","recordist_name":"Brock Stuessi","colloquial_location":"At the top of the Arboretum, in the World Conifer section.","latitude":"36.9895","longitude":"-122.0614","recorder_number":"H3-VR","linked_video_filenames":"","Linked_audio_catalog_#":"","notes":"","Audited?":"","Audited":"105","Orientation":"179","":""},{"catalog_number":"237","date":"2020/1/17","start_time":"1:43 PM","recordist_name":"Brock Stuessi","colloquial_location":"On a hill below the music building, west of the downhill bike path. ","latitude":"36.9915","longitude":"-122.0598","recorder_number":"H3-VR","linked_video_filenames":"","Linked_audio_catalog_#":"","notes":"","Audited?":"","Audited":"88","Orientation":"199","":""},{"catalog_number":"238","date":"2020/1/15","start_time":"5:24 PM","recordist_name":"Skylar Liu","colloquial_location":"Next to the big tree near the arts center, near some Turkeys. ","latitude":"36.99414","longitude":"-122.05964","recorder_number":"H3-VR","linked_video_filenames":"","Linked_audio_catalog_#":"","notes":"","Audited?":"","Audited":"26","Orientation":"206","":""},{"catalog_number":"239","date":"2020/1/15","start_time":"5:31 PM","recordist_name":"Skylar Liu","colloquial_location":"On the bridge to the third floor of the DARC building.","latitude":"36.99407","longitude":"-122.06083","recorder_number":"H3-VR","linked_video_filenames":"","Linked_audio_catalog_#":"","notes":"","Audited?":"","Audited":"183","Orientation":"212","":""},{"catalog_number":"240","date":"2020/1/15","start_time":"5:40 PM","recordist_name":"Skylar Liu","colloquial_location":"Inside DARC 308.","latitude":"36.99395","longitude":"-122.06071","recorder_number":"H3-VR","linked_video_filenames":"","Linked_audio_catalog_#":"","notes":"","Audited?":"","Audited":"280","Orientation":"212","":""}]}